% program   : rnx2rtkp ver.2.4.3 b8
% inp file  : 2023/11/7
% inp file  : 21:25:12
% inp file  : /mnt/c/Users/McMillanAn/OneDrive - MWLR/Projects/PRJ3820-DOC-GNSS/data/Field-Test-Ballance-20231108/CAR/BAL-CAR-OCC1-P4-RINEX/BAL_OCC1_P4.23o
% inp file  : /mnt/c/Users/McMillanAn/OneDrive - MWLR/Projects/PRJ3820-DOC-GNSS/data/Field-Test-Ballance-20231108/R10-Base/RINEX211/01393111.23o
% inp file  : /mnt/c/Users/McMillanAn/OneDrive - MWLR/Projects/PRJ3820-DOC-GNSS/data/Field-Test-Ballance-20231108/R10-Base/RINEX211/01393111.23n
% obs start : 2023/11/07 21:25:12.0 GPST (week2287 249912.0s)
% obs end   : 2023/11/07 21:35:12.0 GPST (week2287 250512.0s)
% ref pos   :-40.332776823, 175.817835011,   97.4150
%
% (lat/lon/height=WGS84/ellipsoidal,Q=1:fix,2:float,3:sbas,4:dgps,5:single,6:ppp,ns=# of satellites)
%  GPST        , latitude(deg),longitude(deg), height(m),  Q, ns,  sdn(m),  sde(m),  sdu(m), sdne(m), sdeu(m), sdun(m),age(s), ratio
2287,249912.000, -40.336254028, 175.812470763,  122.6001,  2,  5,  0.0085,  0.0192,  0.0244, -0.0061,  0.0099,  0.0106,  0.00,   1.0
2287,249913.000, -40.336254021, 175.812470795,  122.6024,  2,  5,  0.0085,  0.0192,  0.0244, -0.0061,  0.0099,  0.0106,  0.00,   1.0
2287,249914.000, -40.336254015, 175.812470823,  122.6048,  2,  5,  0.0085,  0.0193,  0.0245, -0.0061,  0.0099,  0.0106,  0.00,   1.0
2287,249915.000, -40.336254012, 175.812470853,  122.6070,  2,  5,  0.0085,  0.0193,  0.0245, -0.0061,  0.0100,  0.0106,  0.00,   1.1
2287,249916.000, -40.336254007, 175.812470869,  122.6090,  2,  5,  0.0085,  0.0193,  0.0245, -0.0061,  0.0100,  0.0106,  0.00,   1.1
2287,249917.000, -40.336254004, 175.812470897,  122.6121,  2,  5,  0.0086,  0.0193,  0.0246, -0.0061,  0.0100,  0.0106,  0.00,   1.0
2287,249918.000, -40.336254000, 175.812470922,  122.6148,  2,  5,  0.0086,  0.0193,  0.0246, -0.0061,  0.0100,  0.0106,  0.00,   1.0
2287,249919.000, -40.336253991, 175.812470941,  122.6182,  2,  4,  0.0086,  0.0193,  0.0246, -0.0061,  0.0100,  0.0107,  0.00,   1.1
2287,249920.000, -40.336253976, 175.812470929,  122.6235,  2,  5,  0.0086,  0.0193,  0.0247, -0.0061,  0.0100,  0.0107,  0.00,   2.3
2287,249921.000, -40.336253969, 175.812470946,  122.6268,  2,  5,  0.0086,  0.0193,  0.0247, -0.0060,  0.0100,  0.0107,  0.00,   1.3
2287,249922.000, -40.336253965, 175.812470971,  122.6302,  2,  5,  0.0086,  0.0194,  0.0247, -0.0060,  0.0101,  0.0107,  0.00,   1.5
2287,249923.000, -40.336253962, 175.812470987,  122.6327,  2,  5,  0.0086,  0.0194,  0.0248, -0.0060,  0.0101,  0.0107,  0.00,   1.4
2287,249924.000, -40.336253958, 175.812471004,  122.6341,  2,  5,  0.0086,  0.0194,  0.0248, -0.0060,  0.0101,  0.0107,  0.00,   1.4
2287,249925.000, -40.336253954, 175.812471015,  122.6343,  2,  5,  0.0086,  0.0194,  0.0249, -0.0060,  0.0101,  0.0108,  0.00,   1.3
2287,249926.000, -40.336253948, 175.812471026,  122.6346,  2,  5,  0.0087,  0.0194,  0.0249, -0.0060,  0.0101,  0.0108,  0.00,   1.2
2287,249927.000, -40.336253943, 175.812471043,  122.6370,  2,  5,  0.0087,  0.0194,  0.0249, -0.0060,  0.0101,  0.0108,  0.00,   1.1
2287,249928.000, -40.336253940, 175.812471055,  122.6383,  2,  5,  0.0087,  0.0194,  0.0250, -0.0060,  0.0102,  0.0108,  0.00,   1.1
2287,249929.000, -40.336253934, 175.812471069,  122.6399,  2,  5,  0.0087,  0.0195,  0.0250, -0.0060,  0.0102,  0.0108,  0.00,   1.0
2287,249930.000, -40.336253928, 175.812471087,  122.6413,  2,  5,  0.0087,  0.0195,  0.0250, -0.0060,  0.0102,  0.0108,  0.00,   1.1
2287,249931.000, -40.336253921, 175.812471117,  122.6443,  2,  5,  0.0087,  0.0195,  0.0251, -0.0060,  0.0102,  0.0108,  0.00,   1.1
2287,249932.000, -40.336253913, 175.812471137,  122.6456,  2,  5,  0.0087,  0.0195,  0.0251, -0.0060,  0.0102,  0.0109,  0.00,   1.2
2287,249933.000, -40.336253907, 175.812471145,  122.6471,  2,  6,  0.0087,  0.0195,  0.0252, -0.0060,  0.0102,  0.0109,  0.00,   1.8
2287,249934.000, -40.336253901, 175.812471166,  122.6488,  2,  6,  0.0088,  0.0195,  0.0252, -0.0060,  0.0103,  0.0109,  0.00,   1.4
2287,249935.000, -40.336253897, 175.812471174,  122.6473,  2,  6,  0.0088,  0.0195,  0.0252, -0.0060,  0.0103,  0.0109,  0.00,   1.2
2287,249936.000, -40.336253893, 175.812471169,  122.6465,  2,  6,  0.0088,  0.0196,  0.0253, -0.0060,  0.0103,  0.0109,  0.00,   1.5
2287,249937.000, -40.336253890, 175.812471175,  122.6447,  2,  6,  0.0088,  0.0196,  0.0253, -0.0059,  0.0103,  0.0109,  0.00,   1.5
2287,249938.000, -40.336253890, 175.812471179,  122.6438,  2,  6,  0.0088,  0.0196,  0.0254, -0.0059,  0.0103,  0.0110,  0.00,   1.5
2287,249939.000, -40.336253888, 175.812471185,  122.6427,  2,  6,  0.0088,  0.0196,  0.0254, -0.0059,  0.0104,  0.0110,  0.00,   1.5
2287,249940.000, -40.336253885, 175.812471178,  122.6419,  2,  6,  0.0088,  0.0196,  0.0255, -0.0059,  0.0104,  0.0110,  0.00,   1.4
2287,249941.000, -40.336253880, 175.812471171,  122.6400,  2,  6,  0.0089,  0.0196,  0.0255, -0.0059,  0.0104,  0.0110,  0.00,   1.3
2287,249942.000, -40.336253877, 175.812471182,  122.6400,  2,  6,  0.0089,  0.0197,  0.0255, -0.0059,  0.0104,  0.0110,  0.00,   1.3
2287,249943.000, -40.336253872, 175.812471189,  122.6402,  2,  6,  0.0089,  0.0197,  0.0256, -0.0059,  0.0105,  0.0110,  0.00,   1.3
2287,249944.000, -40.336253871, 175.812471195,  122.6394,  2,  6,  0.0089,  0.0197,  0.0256, -0.0059,  0.0105,  0.0111,  0.00,   1.2
2287,249945.000, -40.336253869, 175.812471191,  122.6400,  2,  6,  0.0089,  0.0197,  0.0257, -0.0059,  0.0105,  0.0111,  0.00,   1.2
2287,249946.000, -40.336253872, 175.812471198,  122.6388,  2,  6,  0.0089,  0.0197,  0.0257, -0.0059,  0.0105,  0.0111,  0.00,   1.1
2287,249947.000, -40.336253870, 175.812471207,  122.6385,  2,  6,  0.0089,  0.0197,  0.0258, -0.0059,  0.0106,  0.0111,  0.00,   1.1
2287,249948.000, -40.336253872, 175.812471218,  122.6390,  2,  6,  0.0089,  0.0198,  0.0258, -0.0059,  0.0106,  0.0111,  0.00,   1.1
2287,249949.000, -40.336253872, 175.812471224,  122.6390,  2,  6,  0.0090,  0.0198,  0.0259, -0.0059,  0.0106,  0.0111,  0.00,   1.0
2287,249950.000, -40.336253874, 175.812471232,  122.6387,  2,  6,  0.0090,  0.0198,  0.0259, -0.0058,  0.0106,  0.0112,  0.00,   1.0
2287,249951.000, -40.336253872, 175.812471243,  122.6387,  2,  6,  0.0090,  0.0198,  0.0259, -0.0058,  0.0107,  0.0112,  0.00,   1.0
2287,249952.000, -40.336253873, 175.812471252,  122.6388,  2,  6,  0.0090,  0.0198,  0.0260, -0.0058,  0.0107,  0.0112,  0.00,   1.0
2287,249953.000, -40.336253872, 175.812471253,  122.6389,  2,  6,  0.0090,  0.0198,  0.0260, -0.0058,  0.0107,  0.0112,  0.00,   1.0
2287,249954.000, -40.336253872, 175.812471256,  122.6400,  2,  6,  0.0090,  0.0199,  0.0261, -0.0058,  0.0107,  0.0112,  0.00,   1.0
2287,249955.000, -40.336253874, 175.812471267,  122.6410,  2,  6,  0.0090,  0.0199,  0.0261, -0.0058,  0.0107,  0.0112,  0.00,   1.0
2287,249956.000, -40.336253873, 175.812471260,  122.6413,  2,  7,  0.0091,  0.0199,  0.0262, -0.0058,  0.0108,  0.0113,  0.00,   1.0
2287,249957.000, -40.336253859, 175.812471224,  122.6458,  2,  7,  0.0091,  0.0199,  0.0262, -0.0058,  0.0108,  0.0113,  0.00,   1.0
2287,249958.000, -40.336253861, 175.812471230,  122.6458,  2,  7,  0.0091,  0.0199,  0.0263, -0.0058,  0.0108,  0.0113,  0.00,   1.0
2287,249959.000, -40.336253864, 175.812471233,  122.6463,  2,  7,  0.0091,  0.0199,  0.0263, -0.0058,  0.0109,  0.0113,  0.00,   1.0
2287,249960.000, -40.336253865, 175.812471231,  122.6466,  2,  7,  0.0091,  0.0200,  0.0264, -0.0057,  0.0109,  0.0113,  0.00,   1.0
2287,249961.000, -40.336253867, 175.812471239,  122.6465,  2,  7,  0.0091,  0.0200,  0.0264, -0.0057,  0.0109,  0.0114,  0.00,   1.0
2287,249962.000, -40.336253871, 175.812471239,  122.6471,  2,  7,  0.0091,  0.0200,  0.0265, -0.0057,  0.0109,  0.0114,  0.00,   1.1
2287,249963.000, -40.336253876, 175.812471245,  122.6478,  2,  7,  0.0092,  0.0200,  0.0265, -0.0057,  0.0110,  0.0114,  0.00,   1.1
2287,249964.000, -40.336253879, 175.812471246,  122.6475,  2,  7,  0.0092,  0.0200,  0.0266, -0.0057,  0.0110,  0.0114,  0.00,   1.1
2287,249965.000, -40.336253882, 175.812471242,  122.6478,  2,  7,  0.0092,  0.0200,  0.0266, -0.0057,  0.0110,  0.0114,  0.00,   1.1
2287,249966.000, -40.336253886, 175.812471258,  122.6485,  2,  7,  0.0092,  0.0201,  0.0267, -0.0057,  0.0111,  0.0115,  0.00,   1.1
2287,249967.000, -40.336253890, 175.812471254,  122.6491,  2,  7,  0.0092,  0.0201,  0.0267, -0.0057,  0.0111,  0.0115,  0.00,   1.1
2287,249968.000, -40.336253895, 175.812471267,  122.6502,  2,  7,  0.0092,  0.0201,  0.0267, -0.0057,  0.0111,  0.0115,  0.00,   1.1
2287,249969.000, -40.336253900, 175.812471284,  122.6514,  2,  7,  0.0092,  0.0201,  0.0268, -0.0056,  0.0111,  0.0115,  0.00,   1.2
2287,249970.000, -40.336253906, 175.812471293,  122.6522,  2,  7,  0.0093,  0.0201,  0.0268, -0.0056,  0.0112,  0.0115,  0.00,   1.2
2287,249971.000, -40.336253912, 175.812471288,  122.6522,  2,  7,  0.0093,  0.0201,  0.0269, -0.0056,  0.0112,  0.0115,  0.00,   1.2
2287,249972.000, -40.336253919, 175.812471289,  122.6522,  2,  7,  0.0093,  0.0202,  0.0269, -0.0056,  0.0112,  0.0116,  0.00,   1.3
2287,249973.000, -40.336253926, 175.812471282,  122.6521,  2,  7,  0.0093,  0.0202,  0.0270, -0.0056,  0.0112,  0.0116,  0.00,   1.3
2287,249974.000, -40.336253932, 175.812471281,  122.6528,  2,  7,  0.0093,  0.0202,  0.0270, -0.0056,  0.0113,  0.0116,  0.00,   1.3
2287,249975.000, -40.336253940, 175.812471282,  122.6530,  2,  7,  0.0093,  0.0202,  0.0271, -0.0056,  0.0113,  0.0116,  0.00,   1.3
2287,249976.000, -40.336253948, 175.812471276,  122.6535,  2,  7,  0.0093,  0.0202,  0.0271, -0.0056,  0.0113,  0.0116,  0.00,   1.3
2287,249977.000, -40.336253957, 175.812471274,  122.6533,  2,  7,  0.0094,  0.0202,  0.0272, -0.0055,  0.0113,  0.0117,  0.00,   1.3
2287,249978.000, -40.336253970, 175.812471288,  122.6524,  2,  6,  0.0094,  0.0202,  0.0272, -0.0055,  0.0113,  0.0117,  0.00,   1.3
2287,249979.000, -40.336253979, 175.812471295,  122.6524,  2,  6,  0.0094,  0.0203,  0.0273, -0.0055,  0.0114,  0.0117,  0.00,   1.3
2287,249980.000, -40.336253988, 175.812471304,  122.6537,  2,  6,  0.0094,  0.0203,  0.0273, -0.0055,  0.0114,  0.0117,  0.00,   1.3
2287,249981.000, -40.336253998, 175.812471311,  122.6555,  2,  6,  0.0094,  0.0203,  0.0274, -0.0055,  0.0114,  0.0117,  0.00,   1.3
2287,249982.000, -40.336254007, 175.812471316,  122.6568,  2,  6,  0.0094,  0.0203,  0.0274, -0.0055,  0.0114,  0.0118,  0.00,   1.4
2287,249983.000, -40.336254013, 175.812471316,  122.6584,  2,  6,  0.0095,  0.0203,  0.0274, -0.0055,  0.0115,  0.0118,  0.00,   1.4
2287,249984.000, -40.336254022, 175.812471316,  122.6597,  2,  6,  0.0095,  0.0203,  0.0275, -0.0055,  0.0115,  0.0118,  0.00,   1.4
2287,249985.000, -40.336254034, 175.812471321,  122.6616,  2,  6,  0.0095,  0.0203,  0.0275, -0.0055,  0.0115,  0.0118,  0.00,   1.4
2287,249986.000, -40.336254042, 175.812471326,  122.6627,  2,  6,  0.0095,  0.0204,  0.0276, -0.0054,  0.0115,  0.0118,  0.00,   1.4
2287,249987.000, -40.336254051, 175.812471333,  122.6643,  2,  6,  0.0095,  0.0204,  0.0276, -0.0054,  0.0115,  0.0119,  0.00,   1.4
2287,249988.000, -40.336254063, 175.812471332,  122.6658,  2,  6,  0.0095,  0.0204,  0.0277, -0.0054,  0.0115,  0.0119,  0.00,   1.4
2287,249989.000, -40.336254072, 175.812471330,  122.6679,  2,  6,  0.0095,  0.0204,  0.0277, -0.0054,  0.0116,  0.0119,  0.00,   1.4
2287,249990.000, -40.336254084, 175.812471327,  122.6701,  2,  6,  0.0096,  0.0204,  0.0278, -0.0054,  0.0116,  0.0119,  0.00,   1.4
2287,249991.000, -40.336254092, 175.812471335,  122.6734,  2,  6,  0.0096,  0.0204,  0.0278, -0.0054,  0.0116,  0.0119,  0.00,   1.4
2287,249992.000, -40.336254102, 175.812471343,  122.6769,  2,  6,  0.0096,  0.0204,  0.0278, -0.0054,  0.0116,  0.0119,  0.00,   1.4
2287,249993.000, -40.336254114, 175.812471356,  122.6801,  2,  6,  0.0096,  0.0205,  0.0279, -0.0054,  0.0116,  0.0120,  0.00,   1.4
2287,249994.000, -40.336254126, 175.812471364,  122.6837,  2,  6,  0.0096,  0.0205,  0.0279, -0.0053,  0.0116,  0.0120,  0.00,   1.4
2287,249995.000, -40.336254134, 175.812471376,  122.6859,  2,  6,  0.0096,  0.0205,  0.0280, -0.0053,  0.0117,  0.0120,  0.00,   1.4
2287,249996.000, -40.336254145, 175.812471381,  122.6890,  2,  6,  0.0097,  0.0205,  0.0280, -0.0053,  0.0117,  0.0120,  0.00,   1.4
2287,249997.000, -40.336254157, 175.812471384,  122.6923,  2,  6,  0.0097,  0.0205,  0.0280, -0.0053,  0.0117,  0.0120,  0.00,   1.4
2287,249998.000, -40.336254165, 175.812471397,  122.6957,  2,  6,  0.0097,  0.0205,  0.0281, -0.0053,  0.0117,  0.0121,  0.00,   1.4
2287,249999.000, -40.336254172, 175.812471408,  122.6989,  2,  6,  0.0097,  0.0205,  0.0281, -0.0053,  0.0117,  0.0121,  0.00,   1.4
2287,250000.000, -40.336254184, 175.812471420,  122.7020,  2,  6,  0.0097,  0.0205,  0.0282, -0.0053,  0.0117,  0.0121,  0.00,   1.4
2287,250001.000, -40.336254199, 175.812471436,  122.7062,  2,  6,  0.0097,  0.0205,  0.0282, -0.0053,  0.0117,  0.0121,  0.00,   1.4
2287,250002.000, -40.336254209, 175.812471458,  122.7102,  2,  6,  0.0097,  0.0206,  0.0282, -0.0052,  0.0117,  0.0121,  0.00,   1.4
2287,250003.000, -40.336254216, 175.812471478,  122.7159,  2,  6,  0.0098,  0.0206,  0.0283, -0.0052,  0.0117,  0.0121,  0.00,   1.4
2287,250004.000, -40.336254227, 175.812471504,  122.7212,  2,  6,  0.0098,  0.0206,  0.0283, -0.0052,  0.0118,  0.0122,  0.00,   1.3
2287,250005.000, -40.336254237, 175.812471530,  122.7256,  2,  6,  0.0098,  0.0206,  0.0284, -0.0052,  0.0118,  0.0122,  0.00,   1.3
2287,250006.000, -40.336254246, 175.812471550,  122.7298,  2,  6,  0.0098,  0.0206,  0.0284, -0.0052,  0.0118,  0.0122,  0.00,   1.3
2287,250007.000, -40.336254253, 175.812471576,  122.7346,  2,  6,  0.0098,  0.0206,  0.0284, -0.0052,  0.0118,  0.0122,  0.00,   1.3
2287,250008.000, -40.336254260, 175.812471605,  122.7400,  2,  6,  0.0098,  0.0206,  0.0285, -0.0052,  0.0118,  0.0122,  0.00,   1.3
2287,250009.000, -40.336254271, 175.812471629,  122.7437,  2,  6,  0.0099,  0.0206,  0.0285, -0.0052,  0.0118,  0.0122,  0.00,   1.3
2287,250010.000, -40.336254281, 175.812471650,  122.7473,  2,  7,  0.0099,  0.0206,  0.0285, -0.0051,  0.0118,  0.0123,  0.00,   1.0
2287,250011.000, -40.336254288, 175.812471679,  122.7520,  2,  7,  0.0099,  0.0206,  0.0286, -0.0051,  0.0118,  0.0123,  0.00,   1.1
2287,250012.000, -40.336254297, 175.812471695,  122.7557,  2,  7,  0.0099,  0.0206,  0.0286, -0.0051,  0.0118,  0.0123,  0.00,   1.1
2287,250013.000, -40.336254308, 175.812471727,  122.7603,  2,  7,  0.0099,  0.0207,  0.0286, -0.0051,  0.0118,  0.0123,  0.00,   1.1
2287,250014.000, -40.336254322, 175.812471763,  122.7637,  2,  7,  0.0099,  0.0207,  0.0287, -0.0051,  0.0118,  0.0123,  0.00,   1.0
2287,250015.000, -40.336254328, 175.812471792,  122.7689,  2,  7,  0.0100,  0.0207,  0.0287, -0.0051,  0.0118,  0.0123,  0.00,   1.1
2287,250016.000, -40.336254341, 175.812471813,  122.7728,  2,  7,  0.0100,  0.0207,  0.0288, -0.0051,  0.0119,  0.0124,  0.00,   1.1
2287,250017.000, -40.336254348, 175.812471836,  122.7784,  2,  7,  0.0100,  0.0207,  0.0288, -0.0051,  0.0119,  0.0124,  0.00,   1.1
2287,250018.000, -40.336254354, 175.812471868,  122.7863,  2,  7,  0.0100,  0.0207,  0.0288, -0.0050,  0.0119,  0.0124,  0.00,   1.1
2287,250019.000, -40.336254362, 175.812471892,  122.7931,  2,  7,  0.0100,  0.0207,  0.0289, -0.0050,  0.0119,  0.0124,  0.00,   1.1
2287,250020.000, -40.336254364, 175.812471900,  122.7963,  2,  6,  0.0100,  0.0207,  0.0289, -0.0050,  0.0119,  0.0124,  0.00,   1.2
2287,250021.000, -40.336254372, 175.812471904,  122.7995,  2,  6,  0.0101,  0.0207,  0.0290, -0.0050,  0.0119,  0.0125,  0.00,   1.2
2287,250022.000, -40.336254380, 175.812471918,  122.8042,  2,  6,  0.0101,  0.0208,  0.0290, -0.0050,  0.0119,  0.0125,  0.00,   1.2
2287,250023.000, -40.336254389, 175.812471920,  122.8084,  2,  6,  0.0101,  0.0208,  0.0291, -0.0050,  0.0120,  0.0125,  0.00,   1.2
2287,250024.000, -40.336254399, 175.812471927,  122.8131,  2,  6,  0.0101,  0.0208,  0.0291, -0.0049,  0.0120,  0.0125,  0.00,   1.2
2287,250025.000, -40.336254407, 175.812471944,  122.8195,  2,  6,  0.0101,  0.0208,  0.0291, -0.0049,  0.0120,  0.0125,  0.00,   1.2
2287,250026.000, -40.336254418, 175.812471955,  122.8244,  2,  6,  0.0101,  0.0208,  0.0292, -0.0049,  0.0120,  0.0125,  0.00,   1.2
2287,250027.000, -40.336254434, 175.812471968,  122.8292,  2,  6,  0.0102,  0.0208,  0.0292, -0.0049,  0.0120,  0.0126,  0.00,   1.2
2287,250028.000, -40.336254449, 175.812471975,  122.8348,  2,  6,  0.0102,  0.0208,  0.0293, -0.0049,  0.0120,  0.0126,  0.00,   1.2
2287,250029.000, -40.336254459, 175.812471988,  122.8410,  2,  6,  0.0102,  0.0208,  0.0293, -0.0049,  0.0120,  0.0126,  0.00,   1.2
2287,250030.000, -40.336254470, 175.812471992,  122.8468,  2,  6,  0.0102,  0.0208,  0.0293, -0.0049,  0.0121,  0.0126,  0.00,   1.2
2287,250031.000, -40.336254482, 175.812472003,  122.8536,  2,  6,  0.0102,  0.0209,  0.0294, -0.0048,  0.0121,  0.0126,  0.00,   1.2
2287,250032.000, -40.336254494, 175.812472023,  122.8614,  2,  6,  0.0102,  0.0209,  0.0294, -0.0048,  0.0121,  0.0126,  0.00,   1.2
2287,250033.000, -40.336254503, 175.812472045,  122.8687,  2,  6,  0.0103,  0.0209,  0.0295, -0.0048,  0.0121,  0.0127,  0.00,   1.2
2287,250034.000, -40.336254515, 175.812472047,  122.8731,  2,  6,  0.0103,  0.0209,  0.0295, -0.0048,  0.0121,  0.0127,  0.00,   1.2
2287,250035.000, -40.336254524, 175.812472039,  122.8796,  2,  6,  0.0103,  0.0209,  0.0295, -0.0048,  0.0121,  0.0127,  0.00,   1.2
2287,250036.000, -40.336254540, 175.812472044,  122.8865,  2,  6,  0.0103,  0.0209,  0.0296, -0.0048,  0.0121,  0.0127,  0.00,   1.2
2287,250037.000, -40.336254555, 175.812472051,  122.8942,  2,  6,  0.0103,  0.0209,  0.0296, -0.0048,  0.0121,  0.0127,  0.00,   1.2
2287,250038.000, -40.336254570, 175.812472073,  122.9036,  2,  6,  0.0103,  0.0209,  0.0297, -0.0047,  0.0121,  0.0127,  0.00,   1.2
2287,250039.000, -40.336254583, 175.812472078,  122.9124,  2,  6,  0.0104,  0.0209,  0.0297, -0.0047,  0.0122,  0.0128,  0.00,   1.2
2287,250040.000, -40.336254598, 175.812472092,  122.9235,  2,  6,  0.0104,  0.0209,  0.0297, -0.0047,  0.0122,  0.0128,  0.00,   1.2
2287,250041.000, -40.336254610, 175.812472117,  122.9365,  2,  6,  0.0104,  0.0210,  0.0298, -0.0047,  0.0122,  0.0128,  0.00,   1.2
2287,250042.000, -40.336254625, 175.812472133,  122.9463,  2,  6,  0.0104,  0.0210,  0.0298, -0.0047,  0.0122,  0.0128,  0.00,   1.2
2287,250043.000, -40.336254639, 175.812472149,  122.9568,  2,  6,  0.0104,  0.0210,  0.0298, -0.0047,  0.0122,  0.0128,  0.00,   1.3
2287,250044.000, -40.336254653, 175.812472166,  122.9673,  2,  6,  0.0104,  0.0210,  0.0299, -0.0047,  0.0122,  0.0128,  0.00,   1.3
2287,250045.000, -40.336254667, 175.812472163,  122.9751,  2,  6,  0.0105,  0.0210,  0.0299, -0.0046,  0.0122,  0.0128,  0.00,   1.3
2287,250046.000, -40.336254685, 175.812472166,  122.9847,  2,  6,  0.0105,  0.0210,  0.0300, -0.0046,  0.0122,  0.0129,  0.00,   1.3
2287,250047.000, -40.336254706, 175.812472177,  122.9966,  2,  6,  0.0105,  0.0210,  0.0300, -0.0046,  0.0122,  0.0129,  0.00,   1.3
2287,250048.000, -40.336254732, 175.812472180,  123.0075,  2,  6,  0.0105,  0.0210,  0.0300, -0.0046,  0.0122,  0.0129,  0.00,   1.3
2287,250049.000, -40.336254751, 175.812472190,  123.0189,  2,  6,  0.0105,  0.0210,  0.0301, -0.0046,  0.0122,  0.0129,  0.00,   1.3
2287,250050.000, -40.336254769, 175.812472199,  123.0303,  2,  6,  0.0105,  0.0210,  0.0301, -0.0046,  0.0122,  0.0129,  0.00,   1.3
2287,250051.000, -40.336254784, 175.812472194,  123.0384,  2,  6,  0.0106,  0.0211,  0.0301, -0.0046,  0.0122,  0.0129,  0.00,   1.3
2287,250052.000, -40.336254810, 175.812472188,  123.0483,  2,  6,  0.0106,  0.0211,  0.0302, -0.0045,  0.0123,  0.0130,  0.00,   1.3
2287,250053.000, -40.336254831, 175.812472194,  123.0614,  2,  6,  0.0106,  0.0211,  0.0302, -0.0045,  0.0123,  0.0130,  0.00,   1.3
2287,250054.000, -40.336254854, 175.812472189,  123.0724,  2,  6,  0.0106,  0.0211,  0.0302, -0.0045,  0.0123,  0.0130,  0.00,   1.3
2287,250055.000, -40.336254876, 175.812472185,  123.0832,  2,  6,  0.0106,  0.0211,  0.0303, -0.0045,  0.0123,  0.0130,  0.00,   1.3
2287,250056.000, -40.336254907, 175.812472182,  123.0934,  2,  6,  0.0106,  0.0211,  0.0303, -0.0045,  0.0123,  0.0130,  0.00,   1.3
2287,250057.000, -40.336254939, 175.812472188,  123.1051,  2,  6,  0.0106,  0.0211,  0.0303, -0.0045,  0.0123,  0.0130,  0.00,   1.3
2287,250058.000, -40.336254963, 175.812472185,  123.1149,  2,  7,  0.0107,  0.0211,  0.0304, -0.0045,  0.0123,  0.0130,  0.00,   1.0
2287,250059.000, -40.336254985, 175.812472176,  123.1235,  2,  6,  0.0107,  0.0211,  0.0304, -0.0045,  0.0123,  0.0130,  0.00,   1.3
2287,250060.000, -40.336255014, 175.812472178,  123.1341,  2,  6,  0.0107,  0.0211,  0.0304, -0.0044,  0.0123,  0.0131,  0.00,   1.3
2287,250061.000, -40.336255040, 175.812472174,  123.1448,  2,  6,  0.0107,  0.0211,  0.0305, -0.0044,  0.0123,  0.0131,  0.00,   1.3
2287,250062.000, -40.336255059, 175.812472166,  123.1556,  2,  6,  0.0107,  0.0211,  0.0305, -0.0044,  0.0123,  0.0131,  0.00,   1.0
2287,250063.000, -40.336255076, 175.812472163,  123.1632,  2,  6,  0.0107,  0.0212,  0.0305, -0.0044,  0.0123,  0.0131,  0.00,   1.0
2287,250064.000, -40.336255090, 175.812472156,  123.1696,  2,  6,  0.0108,  0.0212,  0.0306, -0.0044,  0.0123,  0.0131,  0.00,   1.0
2287,250065.000, -40.336255103, 175.812472144,  123.1741,  2,  6,  0.0108,  0.0212,  0.0306, -0.0044,  0.0123,  0.0131,  0.00,   1.0
2287,250066.000, -40.336255121, 175.812472133,  123.1811,  2,  6,  0.0108,  0.0212,  0.0307, -0.0043,  0.0124,  0.0131,  0.00,   1.0
2287,250067.000, -40.336255141, 175.812472112,  123.1889,  2,  6,  0.0108,  0.0212,  0.0307, -0.0043,  0.0124,  0.0132,  0.00,   1.1
2287,250068.000, -40.336255162, 175.812472091,  123.1967,  2,  6,  0.0108,  0.0212,  0.0307, -0.0043,  0.0124,  0.0132,  0.00,   1.1
2287,250069.000, -40.336255188, 175.812472087,  123.2061,  2,  6,  0.0109,  0.0212,  0.0308, -0.0043,  0.0124,  0.0132,  0.00,   1.1
2287,250070.000, -40.336255211, 175.812472079,  123.2151,  2,  6,  0.0109,  0.0212,  0.0308, -0.0043,  0.0124,  0.0132,  0.00,   1.1
2287,250071.000, -40.336255235, 175.812472067,  123.2249,  2,  6,  0.0109,  0.0212,  0.0309, -0.0042,  0.0124,  0.0132,  0.00,   1.0
2287,250072.000, -40.336255257, 175.812472054,  123.2341,  2,  6,  0.0109,  0.0213,  0.0309, -0.0042,  0.0125,  0.0132,  0.00,   1.0
2287,250073.000, -40.336255272, 175.812472034,  123.2417,  2,  6,  0.0109,  0.0213,  0.0309, -0.0042,  0.0125,  0.0133,  0.00,   1.0
2287,250074.000, -40.336255283, 175.812472028,  123.2502,  2,  6,  0.0109,  0.0213,  0.0310, -0.0042,  0.0125,  0.0133,  0.00,   1.1
2287,250075.000, -40.336255286, 175.812472013,  123.2582,  2,  6,  0.0110,  0.0213,  0.0310, -0.0042,  0.0125,  0.0133,  0.00,   1.1
2287,250076.000, -40.336255299, 175.812471989,  123.2640,  2,  7,  0.0110,  0.0213,  0.0311, -0.0041,  0.0125,  0.0133,  0.00,   1.1
2287,250077.000, -40.336255307, 175.812471960,  123.2709,  2,  7,  0.0110,  0.0213,  0.0311, -0.0041,  0.0125,  0.0133,  0.00,   1.2
2287,250078.000, -40.336255310, 175.812471924,  123.2754,  2,  7,  0.0110,  0.0213,  0.0311, -0.0041,  0.0126,  0.0133,  0.00,   1.3
2287,250079.000, -40.336255309, 175.812471898,  123.2810,  2,  7,  0.0110,  0.0213,  0.0312, -0.0041,  0.0126,  0.0134,  0.00,   1.4
2287,250080.000, -40.336255306, 175.812471861,  123.2854,  2,  7,  0.0110,  0.0213,  0.0312, -0.0041,  0.0126,  0.0134,  0.00,   1.4
2287,250081.000, -40.336255306, 175.812471829,  123.2900,  2,  7,  0.0111,  0.0213,  0.0313, -0.0040,  0.0126,  0.0134,  0.00,   1.1
2287,250082.000, -40.336255304, 175.812471794,  123.2935,  2,  7,  0.0111,  0.0214,  0.0313, -0.0040,  0.0126,  0.0134,  0.00,   1.3
2287,250083.000, -40.336255305, 175.812471722,  123.2932,  2,  7,  0.0111,  0.0214,  0.0314, -0.0040,  0.0127,  0.0134,  0.00,   1.4
2287,250084.000, -40.336255310, 175.812471664,  123.2924,  2,  7,  0.0111,  0.0214,  0.0314, -0.0040,  0.0127,  0.0134,  0.00,   1.6
2287,250085.000, -40.336255316, 175.812471610,  123.2927,  2,  7,  0.0111,  0.0214,  0.0315, -0.0039,  0.0127,  0.0135,  0.00,   1.6
2287,250086.000, -40.336255319, 175.812471552,  123.2933,  2,  7,  0.0111,  0.0214,  0.0315, -0.0039,  0.0127,  0.0135,  0.00,   1.5
2287,250087.000, -40.336255324, 175.812471506,  123.2945,  2,  7,  0.0112,  0.0214,  0.0316, -0.0039,  0.0128,  0.0135,  0.00,   1.5
2287,250088.000, -40.336255324, 175.812471444,  123.2954,  2,  7,  0.0112,  0.0214,  0.0316, -0.0039,  0.0128,  0.0135,  0.00,   1.5
2287,250089.000, -40.336255328, 175.812471383,  123.2960,  2,  7,  0.0112,  0.0215,  0.0316, -0.0038,  0.0128,  0.0135,  0.00,   1.5
2287,250090.000, -40.336255331, 175.812471327,  123.2974,  2,  7,  0.0112,  0.0215,  0.0317, -0.0038,  0.0128,  0.0135,  0.00,   1.5
2287,250091.000, -40.336255335, 175.812471274,  123.2991,  2,  7,  0.0112,  0.0215,  0.0317, -0.0038,  0.0128,  0.0136,  0.00,   1.5
2287,250092.000, -40.336255335, 175.812471210,  123.3014,  2,  7,  0.0112,  0.0215,  0.0318, -0.0038,  0.0129,  0.0136,  0.00,   1.5
2287,250093.000, -40.336255336, 175.812471154,  123.3030,  2,  7,  0.0113,  0.0215,  0.0318, -0.0038,  0.0129,  0.0136,  0.00,   1.5
2287,250094.000, -40.336255334, 175.812471101,  123.3057,  2,  7,  0.0113,  0.0215,  0.0319, -0.0037,  0.0129,  0.0136,  0.00,   1.5
2287,250095.000, -40.336255331, 175.812471060,  123.3097,  2,  7,  0.0113,  0.0215,  0.0319, -0.0037,  0.0129,  0.0136,  0.00,   1.5
2287,250096.000, -40.336255332, 175.812471003,  123.3131,  2,  7,  0.0113,  0.0215,  0.0319, -0.0037,  0.0129,  0.0136,  0.00,   1.6
2287,250097.000, -40.336255334, 175.812470962,  123.3168,  2,  7,  0.0113,  0.0215,  0.0320, -0.0037,  0.0130,  0.0136,  0.00,   1.6
2287,250098.000, -40.336255332, 175.812470907,  123.3205,  2,  7,  0.0113,  0.0216,  0.0320, -0.0036,  0.0130,  0.0137,  0.00,   1.6
2287,250099.000, -40.336255333, 175.812470868,  123.3241,  2,  7,  0.0114,  0.0216,  0.0321, -0.0036,  0.0130,  0.0137,  0.00,   1.6
2287,250100.000, -40.336255336, 175.812470825,  123.3271,  2,  7,  0.0114,  0.0216,  0.0321, -0.0036,  0.0130,  0.0137,  0.00,   1.6
2287,250101.000, -40.336255335, 175.812470775,  123.3313,  2,  7,  0.0114,  0.0216,  0.0321, -0.0036,  0.0130,  0.0137,  0.00,   1.7
2287,250102.000, -40.336255337, 175.812470726,  123.3355,  2,  7,  0.0114,  0.0216,  0.0322, -0.0036,  0.0130,  0.0137,  0.00,   1.6
2287,250103.000, -40.336255333, 175.812470683,  123.3404,  2,  7,  0.0114,  0.0216,  0.0322, -0.0035,  0.0131,  0.0137,  0.00,   1.7
2287,250104.000, -40.336255325, 175.812470649,  123.3465,  2,  7,  0.0114,  0.0216,  0.0323, -0.0035,  0.0131,  0.0137,  0.00,   1.1
2287,250105.000, -40.336255320, 175.812470618,  123.3531,  2,  7,  0.0115,  0.0216,  0.0323, -0.0035,  0.0131,  0.0137,  0.00,   1.2
2287,250106.000, -40.336255314, 175.812470578,  123.3588,  2,  7,  0.0115,  0.0216,  0.0323, -0.0035,  0.0131,  0.0138,  0.00,   1.2
2287,250107.000, -40.336255310, 175.812470546,  123.3645,  2,  7,  0.0115,  0.0216,  0.0324, -0.0034,  0.0131,  0.0138,  0.00,   1.3
2287,250108.000, -40.336255307, 175.812470515,  123.3700,  2,  7,  0.0115,  0.0217,  0.0324, -0.0034,  0.0131,  0.0138,  0.00,   1.4
2287,250109.000, -40.336255296, 175.812470485,  123.3760,  2,  7,  0.0115,  0.0217,  0.0324, -0.0034,  0.0131,  0.0138,  0.00,   1.5
2287,250110.000, -40.336255286, 175.812470465,  123.3820,  2,  7,  0.0115,  0.0217,  0.0325, -0.0034,  0.0132,  0.0138,  0.00,   1.6
2287,250111.000, -40.336255274, 175.812470448,  123.3874,  2,  7,  0.0116,  0.0217,  0.0325, -0.0034,  0.0132,  0.0138,  0.00,   1.6
2287,250112.000, -40.336255257, 175.812470438,  123.3947,  2,  7,  0.0116,  0.0217,  0.0325, -0.0033,  0.0132,  0.0138,  0.00,   1.7
2287,250113.000, -40.336255257, 175.812470456,  123.4040,  2,  7,  0.0116,  0.0217,  0.0326, -0.0033,  0.0132,  0.0138,  0.00,   1.1
2287,250114.000, -40.336255243, 175.812470451,  123.4106,  2,  7,  0.0116,  0.0217,  0.0326, -0.0033,  0.0132,  0.0139,  0.00,   1.2
2287,250115.000, -40.336255226, 175.812470446,  123.4184,  2,  7,  0.0116,  0.0217,  0.0326, -0.0033,  0.0132,  0.0139,  0.00,   1.2
2287,250116.000, -40.336255210, 175.812470435,  123.4261,  2,  7,  0.0116,  0.0217,  0.0327, -0.0032,  0.0133,  0.0139,  0.00,   1.3
2287,250117.000, -40.336255196, 175.812470426,  123.4326,  2,  7,  0.0116,  0.0217,  0.0327, -0.0032,  0.0133,  0.0139,  0.00,   1.4
2287,250118.000, -40.336255179, 175.812470424,  123.4399,  2,  7,  0.0117,  0.0217,  0.0328, -0.0032,  0.0133,  0.0139,  0.00,   1.4
2287,250119.000, -40.336255160, 175.812470424,  123.4484,  2,  7,  0.0117,  0.0218,  0.0328, -0.0031,  0.0133,  0.0139,  0.00,   1.5
2287,250120.000, -40.336255147, 175.812470428,  123.4556,  2,  7,  0.0117,  0.0218,  0.0328, -0.0031,  0.0133,  0.0139,  0.00,   1.5
2287,250121.000, -40.336255130, 175.812470419,  123.4612,  2,  7,  0.0117,  0.0218,  0.0329, -0.0031,  0.0133,  0.0140,  0.00,   1.6
2287,250122.000, -40.336255114, 175.812470427,  123.4659,  2,  7,  0.0117,  0.0218,  0.0329, -0.0031,  0.0134,  0.0140,  0.00,   1.6
2287,250123.000, -40.336255100, 175.812470429,  123.4707,  2,  7,  0.0117,  0.0218,  0.0329, -0.0030,  0.0134,  0.0140,  0.00,   1.6
2287,250124.000, -40.336255084, 175.812470433,  123.4780,  2,  7,  0.0118,  0.0218,  0.0330, -0.0030,  0.0134,  0.0140,  0.00,   1.6
2287,250125.000, -40.336255068, 175.812470439,  123.4860,  2,  7,  0.0118,  0.0218,  0.0330, -0.0030,  0.0134,  0.0140,  0.00,   1.6
2287,250126.000, -40.336255052, 175.812470450,  123.4932,  2,  7,  0.0118,  0.0218,  0.0330, -0.0030,  0.0134,  0.0140,  0.00,   1.6
2287,250127.000, -40.336255034, 175.812470460,  123.4993,  2,  7,  0.0118,  0.0218,  0.0331, -0.0029,  0.0134,  0.0140,  0.00,   1.6
2287,250128.000, -40.336255015, 175.812470460,  123.5062,  2,  7,  0.0118,  0.0218,  0.0331, -0.0029,  0.0134,  0.0140,  0.00,   1.5
2287,250129.000, -40.336255003, 175.812470459,  123.5089,  2,  7,  0.0118,  0.0218,  0.0331, -0.0029,  0.0134,  0.0141,  0.00,   1.0
2287,250130.000, -40.336254981, 175.812470450,  123.5142,  2,  7,  0.0118,  0.0218,  0.0332, -0.0028,  0.0135,  0.0141,  0.00,   1.0
2287,250131.000, -40.336254963, 175.812470451,  123.5181,  2,  7,  0.0119,  0.0219,  0.0332, -0.0028,  0.0135,  0.0141,  0.00,   1.0
2287,250132.000, -40.336254946, 175.812470448,  123.5232,  2,  7,  0.0119,  0.0219,  0.0333, -0.0028,  0.0135,  0.0141,  0.00,   1.0
2287,250133.000, -40.336254930, 175.812470447,  123.5279,  2,  7,  0.0119,  0.0219,  0.0333, -0.0027,  0.0135,  0.0141,  0.00,   1.1
2287,250134.000, -40.336254908, 175.812470459,  123.5338,  2,  7,  0.0119,  0.0219,  0.0333, -0.0027,  0.0136,  0.0141,  0.00,   1.1
2287,250135.000, -40.336254886, 175.812470468,  123.5379,  2,  7,  0.0119,  0.0219,  0.0334, -0.0027,  0.0136,  0.0141,  0.00,   1.1
2287,250136.000, -40.336254861, 175.812470482,  123.5426,  2,  7,  0.0119,  0.0219,  0.0334, -0.0026,  0.0136,  0.0142,  0.00,   1.1
2287,250137.000, -40.336254835, 175.812470489,  123.5482,  2,  7,  0.0119,  0.0219,  0.0334, -0.0026,  0.0136,  0.0142,  0.00,   1.1
2287,250138.000, -40.336254814, 175.812470503,  123.5528,  2,  7,  0.0120,  0.0219,  0.0335, -0.0026,  0.0136,  0.0142,  0.00,   1.1
2287,250139.000, -40.336254798, 175.812470509,  123.5581,  2,  7,  0.0120,  0.0219,  0.0335, -0.0025,  0.0136,  0.0142,  0.00,   1.0
2287,250140.000, -40.336254779, 175.812470508,  123.5633,  2,  7,  0.0120,  0.0219,  0.0335, -0.0025,  0.0136,  0.0142,  0.00,   1.0
2287,250141.000, -40.336254758, 175.812470510,  123.5682,  2,  7,  0.0120,  0.0219,  0.0336, -0.0025,  0.0137,  0.0142,  0.00,   1.0
2287,250142.000, -40.336254739, 175.812470529,  123.5729,  2,  7,  0.0120,  0.0219,  0.0336, -0.0024,  0.0137,  0.0142,  0.00,   1.0
2287,250143.000, -40.336254723, 175.812470538,  123.5761,  2,  7,  0.0120,  0.0220,  0.0336, -0.0024,  0.0137,  0.0143,  0.00,   1.0
2287,250144.000, -40.336254707, 175.812470551,  123.5791,  2,  7,  0.0120,  0.0220,  0.0336, -0.0024,  0.0137,  0.0143,  0.00,   1.0
2287,250145.000, -40.336254691, 175.812470586,  123.5830,  2,  7,  0.0121,  0.0220,  0.0337, -0.0024,  0.0137,  0.0143,  0.00,   1.0
2287,250146.000, -40.336254670, 175.812470613,  123.5875,  2,  7,  0.0121,  0.0220,  0.0337, -0.0023,  0.0137,  0.0143,  0.00,   1.0
2287,250147.000, -40.336254643, 175.812470632,  123.5934,  2,  7,  0.0121,  0.0220,  0.0337, -0.0023,  0.0137,  0.0143,  0.00,   1.0
2287,250148.000, -40.336254619, 175.812470617,  123.5934,  2,  7,  0.0121,  0.0220,  0.0338, -0.0023,  0.0137,  0.0143,  0.00,   1.1
2287,250149.000, -40.336254598, 175.812470633,  123.5951,  2,  7,  0.0121,  0.0220,  0.0338, -0.0022,  0.0137,  0.0143,  0.00,   1.1
2287,250150.000, -40.336254577, 175.812470648,  123.5970,  2,  7,  0.0121,  0.0220,  0.0338, -0.0022,  0.0138,  0.0143,  0.00,   1.0
2287,250151.000, -40.336254554, 175.812470661,  123.5999,  2,  7,  0.0121,  0.0220,  0.0338, -0.0022,  0.0138,  0.0143,  0.00,   1.0
2287,250152.000, -40.336254531, 175.812470673,  123.6010,  2,  7,  0.0121,  0.0220,  0.0338, -0.0021,  0.0138,  0.0143,  0.00,   1.1
2287,250153.000, -40.336254509, 175.812470690,  123.6027,  2,  7,  0.0122,  0.0220,  0.0339, -0.0021,  0.0138,  0.0144,  0.00,   1.1
2287,250154.000, -40.336254486, 175.812470722,  123.6061,  2,  7,  0.0122,  0.0220,  0.0339, -0.0021,  0.0138,  0.0144,  0.00,   1.1
2287,250155.000, -40.336254462, 175.812470743,  123.6078,  2,  7,  0.0122,  0.0220,  0.0339, -0.0021,  0.0138,  0.0144,  0.00,   1.1
2287,250156.000, -40.336254436, 175.812470760,  123.6098,  2,  7,  0.0122,  0.0220,  0.0339, -0.0020,  0.0138,  0.0144,  0.00,   1.1
2287,250157.000, -40.336254407, 175.812470777,  123.6120,  2,  7,  0.0122,  0.0220,  0.0339, -0.0020,  0.0138,  0.0144,  0.00,   1.1
2287,250158.000, -40.336254376, 175.812470809,  123.6147,  2,  7,  0.0122,  0.0220,  0.0340, -0.0020,  0.0138,  0.0144,  0.00,   1.1
2287,250159.000, -40.336254350, 175.812470837,  123.6178,  2,  7,  0.0122,  0.0220,  0.0340, -0.0020,  0.0138,  0.0144,  0.00,   1.1
2287,250160.000, -40.336254327, 175.812470868,  123.6197,  2,  7,  0.0122,  0.0220,  0.0340, -0.0019,  0.0138,  0.0144,  0.00,   1.1
2287,250161.000, -40.336254305, 175.812470899,  123.6202,  2,  7,  0.0122,  0.0220,  0.0340, -0.0019,  0.0138,  0.0144,  0.00,   1.1
2287,250162.000, -40.336254282, 175.812470907,  123.6214,  2,  7,  0.0123,  0.0220,  0.0340, -0.0019,  0.0138,  0.0144,  0.00,   1.1
2287,250163.000, -40.336254257, 175.812470922,  123.6240,  2,  7,  0.0123,  0.0220,  0.0340, -0.0019,  0.0138,  0.0144,  0.00,   1.1
2287,250164.000, -40.336254235, 175.812470946,  123.6264,  2,  7,  0.0123,  0.0220,  0.0340, -0.0019,  0.0138,  0.0144,  0.00,   1.1
2287,250165.000, -40.336254210, 175.812470962,  123.6284,  2,  7,  0.0123,  0.0220,  0.0341, -0.0018,  0.0138,  0.0144,  0.00,   1.1
2287,250166.000, -40.336254184, 175.812470988,  123.6325,  2,  7,  0.0123,  0.0220,  0.0341, -0.0018,  0.0138,  0.0145,  0.00,   1.1
2287,250167.000, -40.336254162, 175.812471026,  123.6365,  2,  7,  0.0123,  0.0220,  0.0341, -0.0018,  0.0138,  0.0145,  0.00,   1.1
2287,250168.000, -40.336254138, 175.812471062,  123.6391,  2,  7,  0.0123,  0.0220,  0.0341, -0.0018,  0.0138,  0.0145,  0.00,   1.1
2287,250169.000, -40.336254111, 175.812471079,  123.6429,  2,  7,  0.0123,  0.0220,  0.0341, -0.0018,  0.0138,  0.0145,  0.00,   1.1
2287,250170.000, -40.336254085, 175.812471107,  123.6473,  2,  7,  0.0123,  0.0220,  0.0341, -0.0018,  0.0138,  0.0145,  0.00,   1.1
2287,250171.000, -40.336254055, 175.812471144,  123.6525,  2,  7,  0.0123,  0.0220,  0.0341, -0.0018,  0.0137,  0.0145,  0.00,   1.1
2287,250172.000, -40.336254023, 175.812471160,  123.6540,  2,  7,  0.0124,  0.0220,  0.0341, -0.0018,  0.0137,  0.0145,  0.00,   1.0
2287,250173.000, -40.336253999, 175.812471195,  123.6536,  2,  7,  0.0124,  0.0220,  0.0341, -0.0017,  0.0137,  0.0145,  0.00,   1.0
2287,250174.000, -40.336253970, 175.812471207,  123.6535,  2,  7,  0.0124,  0.0220,  0.0341, -0.0017,  0.0137,  0.0145,  0.00,   1.0
2287,250175.000, -40.336253933, 175.812471248,  123.6575,  2,  7,  0.0124,  0.0220,  0.0341, -0.0017,  0.0137,  0.0145,  0.00,   1.1
2287,250176.000, -40.336253887, 175.812471288,  123.6619,  2,  7,  0.0124,  0.0220,  0.0341, -0.0017,  0.0137,  0.0145,  0.00,   1.1
2287,250177.000, -40.336253850, 175.812471292,  123.6620,  2,  7,  0.0124,  0.0220,  0.0341, -0.0017,  0.0137,  0.0145,  0.00,   1.1
2287,250178.000, -40.336253832, 175.812471316,  123.6639,  2,  7,  0.0124,  0.0220,  0.0341, -0.0017,  0.0137,  0.0145,  0.00,   1.1
2287,250179.000, -40.336253826, 175.812471355,  123.6660,  2,  7,  0.0124,  0.0220,  0.0341, -0.0017,  0.0136,  0.0145,  0.00,   1.1
2287,250180.000, -40.336253817, 175.812471387,  123.6697,  2,  7,  0.0124,  0.0220,  0.0341, -0.0017,  0.0136,  0.0145,  0.00,   1.1
2287,250181.000, -40.336253805, 175.812471401,  123.6750,  2,  7,  0.0124,  0.0220,  0.0341, -0.0017,  0.0136,  0.0145,  0.00,   1.0
2287,250182.000, -40.336253798, 175.812471406,  123.6786,  2,  7,  0.0124,  0.0220,  0.0341, -0.0017,  0.0136,  0.0145,  0.00,   1.0
2287,250183.000, -40.336253797, 175.812471429,  123.6844,  2,  7,  0.0124,  0.0220,  0.0341, -0.0017,  0.0136,  0.0145,  0.00,   1.1
2287,250184.000, -40.336253796, 175.812471437,  123.6880,  2,  7,  0.0124,  0.0220,  0.0341, -0.0018,  0.0136,  0.0145,  0.00,   1.1
2287,250185.000, -40.336253790, 175.812471441,  123.6902,  2,  7,  0.0124,  0.0220,  0.0340, -0.0018,  0.0135,  0.0145,  0.00,   1.1
2287,250186.000, -40.336253778, 175.812471428,  123.6892,  2,  6,  0.0124,  0.0220,  0.0341, -0.0018,  0.0135,  0.0145,  0.00,   1.2
2287,250187.000, -40.336253775, 175.812471421,  123.6908,  2,  6,  0.0125,  0.0220,  0.0341, -0.0018,  0.0135,  0.0145,  0.00,   1.2
2287,250188.000, -40.336253772, 175.812471417,  123.6900,  2,  6,  0.0125,  0.0220,  0.0341, -0.0018,  0.0135,  0.0145,  0.00,   1.2
2287,250189.000, -40.336253759, 175.812471415,  123.6921,  2,  6,  0.0125,  0.0220,  0.0341, -0.0018,  0.0135,  0.0145,  0.00,   1.2
2287,250190.000, -40.336253745, 175.812471418,  123.6951,  2,  6,  0.0125,  0.0220,  0.0341, -0.0018,  0.0135,  0.0145,  0.00,   1.3
2287,250191.000, -40.336253736, 175.812471423,  123.6937,  2,  5,  0.0125,  0.0220,  0.0341, -0.0018,  0.0135,  0.0145,  0.00,   1.2
2287,250192.000, -40.336253712, 175.812471432,  123.6937,  2,  6,  0.0125,  0.0220,  0.0341, -0.0018,  0.0135,  0.0145,  0.00,   1.0
2287,250193.000, -40.336253686, 175.812471447,  123.6942,  2,  6,  0.0125,  0.0220,  0.0341, -0.0018,  0.0135,  0.0145,  0.00,   1.1
2287,250194.000, -40.336253657, 175.812471446,  123.6943,  2,  6,  0.0125,  0.0220,  0.0341, -0.0018,  0.0135,  0.0145,  0.00,   1.1
2287,250195.000, -40.336253623, 175.812471456,  123.6953,  2,  6,  0.0125,  0.0220,  0.0341, -0.0018,  0.0135,  0.0145,  0.00,   1.1
2287,250196.000, -40.336253592, 175.812471465,  123.6959,  2,  6,  0.0125,  0.0220,  0.0341, -0.0018,  0.0135,  0.0145,  0.00,   1.2
2287,250197.000, -40.336253565, 175.812471484,  123.6960,  2,  6,  0.0125,  0.0220,  0.0341, -0.0018,  0.0135,  0.0145,  0.00,   1.2
2287,250198.000, -40.336253541, 175.812471493,  123.6963,  2,  6,  0.0125,  0.0220,  0.0341, -0.0019,  0.0135,  0.0145,  0.00,   1.2
2287,250199.000, -40.336253521, 175.812471492,  123.6965,  2,  6,  0.0125,  0.0220,  0.0341, -0.0019,  0.0135,  0.0145,  0.00,   1.2
2287,250200.000, -40.336253495, 175.812471495,  123.6962,  2,  6,  0.0125,  0.0220,  0.0340, -0.0019,  0.0135,  0.0145,  0.00,   1.3
2287,250201.000, -40.336253469, 175.812471493,  123.6967,  2,  6,  0.0125,  0.0220,  0.0340, -0.0019,  0.0134,  0.0145,  0.00,   1.3
2287,250202.000, -40.336253453, 175.812471494,  123.6962,  2,  6,  0.0125,  0.0220,  0.0340, -0.0019,  0.0134,  0.0145,  0.00,   1.3
2287,250203.000, -40.336253436, 175.812471486,  123.6974,  2,  6,  0.0125,  0.0220,  0.0340, -0.0019,  0.0134,  0.0145,  0.00,   1.3
2287,250204.000, -40.336253415, 175.812471482,  123.6980,  2,  6,  0.0125,  0.0220,  0.0340, -0.0020,  0.0134,  0.0145,  0.00,   1.3
2287,250205.000, -40.336253395, 175.812471484,  123.6997,  2,  6,  0.0125,  0.0219,  0.0340, -0.0020,  0.0134,  0.0145,  0.00,   1.3
2287,250206.000, -40.336253376, 175.812471490,  123.7022,  2,  6,  0.0125,  0.0219,  0.0340, -0.0020,  0.0134,  0.0145,  0.00,   1.3
2287,250207.000, -40.336253356, 175.812471496,  123.7047,  2,  6,  0.0125,  0.0219,  0.0340, -0.0020,  0.0134,  0.0145,  0.00,   1.3
2287,250208.000, -40.336253338, 175.812471511,  123.7070,  2,  6,  0.0125,  0.0219,  0.0340, -0.0021,  0.0134,  0.0144,  0.00,   1.3
2287,250209.000, -40.336253320, 175.812471523,  123.7109,  2,  6,  0.0125,  0.0219,  0.0340, -0.0021,  0.0133,  0.0144,  0.00,   1.3
2287,250210.000, -40.336253310, 175.812471509,  123.7124,  2,  6,  0.0125,  0.0219,  0.0340, -0.0021,  0.0133,  0.0144,  0.00,   1.3
2287,250211.000, -40.336253312, 175.812471532,  123.7107,  2,  5,  0.0125,  0.0219,  0.0340, -0.0021,  0.0133,  0.0144,  0.00,   1.2
2287,250212.000, -40.336253302, 175.812471525,  123.7125,  2,  5,  0.0125,  0.0219,  0.0340, -0.0021,  0.0133,  0.0144,  0.00,   1.2
2287,250213.000, -40.336253299, 175.812471527,  123.7135,  2,  5,  0.0125,  0.0219,  0.0340, -0.0021,  0.0133,  0.0144,  0.00,   1.2
2287,250214.000, -40.336253291, 175.812471525,  123.7138,  2,  5,  0.0125,  0.0219,  0.0340, -0.0021,  0.0133,  0.0144,  0.00,   1.2
2287,250215.000, -40.336253278, 175.812471533,  123.7138,  2,  5,  0.0125,  0.0219,  0.0340, -0.0022,  0.0133,  0.0144,  0.00,   1.2
2287,250216.000, -40.336253271, 175.812471536,  123.7126,  2,  5,  0.0125,  0.0219,  0.0340, -0.0022,  0.0133,  0.0144,  0.00,   1.2
2287,250217.000, -40.336253264, 175.812471531,  123.7128,  2,  5,  0.0125,  0.0219,  0.0340, -0.0022,  0.0133,  0.0144,  0.00,   1.2
2287,250218.000, -40.336253253, 175.812471541,  123.7129,  2,  5,  0.0125,  0.0219,  0.0340, -0.0022,  0.0133,  0.0144,  0.00,   1.2
2287,250219.000, -40.336253242, 175.812471546,  123.7123,  2,  5,  0.0125,  0.0219,  0.0340, -0.0022,  0.0133,  0.0144,  0.00,   1.2
2287,250220.000, -40.336253235, 175.812471547,  123.7124,  2,  5,  0.0125,  0.0219,  0.0340, -0.0022,  0.0133,  0.0144,  0.00,   1.2
2287,250221.000, -40.336253231, 175.812471547,  123.7120,  2,  5,  0.0125,  0.0219,  0.0340, -0.0022,  0.0133,  0.0144,  0.00,   1.2
2287,250222.000, -40.336253220, 175.812471557,  123.7116,  2,  5,  0.0125,  0.0219,  0.0340, -0.0022,  0.0133,  0.0144,  0.00,   1.2
2287,250223.000, -40.336253209, 175.812471559,  123.7119,  2,  5,  0.0125,  0.0219,  0.0340, -0.0023,  0.0133,  0.0144,  0.00,   1.2
2287,250224.000, -40.336253209, 175.812471565,  123.7155,  2,  5,  0.0125,  0.0219,  0.0340, -0.0023,  0.0133,  0.0144,  0.00,   1.2
2287,250225.000, -40.336253209, 175.812471574,  123.7186,  2,  5,  0.0125,  0.0219,  0.0339, -0.0023,  0.0133,  0.0144,  0.00,   1.2
2287,250226.000, -40.336253209, 175.812471583,  123.7190,  2,  5,  0.0125,  0.0219,  0.0339, -0.0023,  0.0133,  0.0144,  0.00,   1.2
2287,250227.000, -40.336253212, 175.812471600,  123.7185,  2,  6,  0.0125,  0.0219,  0.0339, -0.0023,  0.0133,  0.0144,  0.00,   1.0
2287,250228.000, -40.336253198, 175.812471603,  123.7201,  2,  6,  0.0125,  0.0219,  0.0339, -0.0023,  0.0133,  0.0144,  0.00,   1.1
2287,250229.000, -40.336253194, 175.812471616,  123.7227,  2,  6,  0.0125,  0.0219,  0.0339, -0.0023,  0.0133,  0.0144,  0.00,   1.1
2287,250230.000, -40.336253192, 175.812471624,  123.7256,  2,  6,  0.0125,  0.0219,  0.0339, -0.0024,  0.0133,  0.0144,  0.00,   1.1
2287,250231.000, -40.336253190, 175.812471675,  123.7299,  2,  6,  0.0125,  0.0219,  0.0339, -0.0024,  0.0133,  0.0144,  0.00,   1.0
2287,250232.000, -40.336253175, 175.812471691,  123.7339,  2,  7,  0.0125,  0.0219,  0.0339, -0.0024,  0.0133,  0.0144,  0.00,   1.1
2287,250233.000, -40.336253157, 175.812471724,  123.7389,  2,  7,  0.0125,  0.0219,  0.0339, -0.0024,  0.0133,  0.0144,  0.00,   1.1
2287,250234.000, -40.336253140, 175.812471758,  123.7403,  2,  7,  0.0125,  0.0219,  0.0339, -0.0024,  0.0133,  0.0144,  0.00,   1.0
2287,250235.000, -40.336253115, 175.812471786,  123.7451,  2,  7,  0.0125,  0.0219,  0.0339, -0.0024,  0.0133,  0.0144,  0.00,   1.1
2287,250236.000, -40.336253093, 175.812471798,  123.7488,  2,  7,  0.0125,  0.0219,  0.0339, -0.0025,  0.0133,  0.0144,  0.00,   1.1
2287,250237.000, -40.336253075, 175.812471805,  123.7512,  2,  6,  0.0125,  0.0219,  0.0338, -0.0025,  0.0133,  0.0144,  0.00,   1.0
2287,250238.000, -40.336253063, 175.812471819,  123.7538,  2,  6,  0.0125,  0.0219,  0.0338, -0.0025,  0.0133,  0.0144,  0.00,   1.0
2287,250239.000, -40.336253044, 175.812471820,  123.7574,  2,  5,  0.0125,  0.0219,  0.0338, -0.0025,  0.0133,  0.0144,  0.00,   1.1
2287,250240.000, -40.336253030, 175.812471831,  123.7591,  2,  5,  0.0125,  0.0219,  0.0338, -0.0026,  0.0133,  0.0144,  0.00,   1.1
2287,250241.000, -40.336253017, 175.812471832,  123.7602,  2,  5,  0.0124,  0.0219,  0.0338, -0.0026,  0.0133,  0.0144,  0.00,   1.1
2287,250242.000, -40.336253004, 175.812471831,  123.7623,  2,  5,  0.0124,  0.0219,  0.0338, -0.0026,  0.0133,  0.0144,  0.00,   1.1
2287,250243.000, -40.336252993, 175.812471830,  123.7638,  2,  5,  0.0124,  0.0218,  0.0338, -0.0026,  0.0133,  0.0144,  0.00,   1.0
2287,250244.000, -40.336252981, 175.812471835,  123.7654,  2,  5,  0.0124,  0.0218,  0.0338, -0.0026,  0.0133,  0.0144,  0.00,   1.0
2287,250245.000, -40.336252966, 175.812471834,  123.7674,  2,  5,  0.0124,  0.0218,  0.0338, -0.0027,  0.0133,  0.0144,  0.00,   1.0
2287,250246.000, -40.336252950, 175.812471832,  123.7689,  2,  5,  0.0124,  0.0218,  0.0337, -0.0027,  0.0132,  0.0144,  0.00,   1.0
2287,250247.000, -40.336252935, 175.812471829,  123.7688,  2,  5,  0.0124,  0.0218,  0.0337, -0.0027,  0.0132,  0.0144,  0.00,   1.0
2287,250248.000, -40.336252918, 175.812471830,  123.7684,  2,  5,  0.0124,  0.0218,  0.0337, -0.0027,  0.0132,  0.0143,  0.00,   1.0
2287,250249.000, -40.336252904, 175.812471836,  123.7690,  2,  5,  0.0124,  0.0218,  0.0337, -0.0028,  0.0132,  0.0143,  0.00,   1.0
2287,250250.000, -40.336252891, 175.812471834,  123.7690,  2,  5,  0.0124,  0.0218,  0.0337, -0.0028,  0.0132,  0.0143,  0.00,   1.0
2287,250251.000, -40.336252876, 175.812471835,  123.7695,  2,  5,  0.0124,  0.0218,  0.0337, -0.0028,  0.0132,  0.0143,  0.00,   1.0
2287,250252.000, -40.336252860, 175.812471835,  123.7713,  2,  5,  0.0124,  0.0218,  0.0337, -0.0028,  0.0132,  0.0143,  0.00,   1.0
2287,250253.000, -40.336252845, 175.812471839,  123.7716,  2,  5,  0.0124,  0.0218,  0.0336, -0.0028,  0.0132,  0.0143,  0.00,   1.0
2287,250254.000, -40.336252829, 175.812471833,  123.7707,  2,  5,  0.0124,  0.0218,  0.0336, -0.0029,  0.0132,  0.0143,  0.00,   1.0
2287,250255.000, -40.336252819, 175.812471828,  123.7702,  2,  5,  0.0124,  0.0218,  0.0336, -0.0029,  0.0132,  0.0143,  0.00,   1.0
2287,250256.000, -40.336252811, 175.812471836,  123.7701,  2,  5,  0.0123,  0.0218,  0.0336, -0.0029,  0.0132,  0.0143,  0.00,   1.0
2287,250257.000, -40.336252796, 175.812471839,  123.7704,  2,  5,  0.0123,  0.0218,  0.0336, -0.0029,  0.0132,  0.0143,  0.00,   1.0
2287,250258.000, -40.336252786, 175.812471841,  123.7704,  2,  5,  0.0123,  0.0218,  0.0336, -0.0030,  0.0132,  0.0143,  0.00,   1.1
2287,250259.000, -40.336252774, 175.812471842,  123.7706,  2,  5,  0.0123,  0.0218,  0.0336, -0.0030,  0.0132,  0.0143,  0.00,   1.1
2287,250260.000, -40.336252758, 175.812471844,  123.7711,  2,  5,  0.0123,  0.0218,  0.0335, -0.0030,  0.0132,  0.0143,  0.00,   1.1
2287,250261.000, -40.336252745, 175.812471847,  123.7700,  2,  5,  0.0123,  0.0218,  0.0335, -0.0030,  0.0132,  0.0143,  0.00,   1.0
2287,250262.000, -40.336252739, 175.812471848,  123.7693,  2,  6,  0.0123,  0.0218,  0.0335, -0.0030,  0.0132,  0.0143,  0.00,   1.0
2287,250263.000, -40.336252724, 175.812471855,  123.7702,  2,  6,  0.0123,  0.0218,  0.0335, -0.0031,  0.0132,  0.0143,  0.00,   1.0
2287,250264.000, -40.336252706, 175.812471867,  123.7716,  2,  6,  0.0123,  0.0218,  0.0335, -0.0031,  0.0132,  0.0142,  0.00,   1.0
2287,250265.000, -40.336252695, 175.812471880,  123.7725,  2,  6,  0.0123,  0.0217,  0.0334, -0.0031,  0.0132,  0.0142,  0.00,   1.0
2287,250266.000, -40.336252679, 175.812471891,  123.7733,  2,  6,  0.0123,  0.0217,  0.0334, -0.0031,  0.0131,  0.0142,  0.00,   1.0
2287,250267.000, -40.336252663, 175.812471902,  123.7740,  2,  6,  0.0122,  0.0217,  0.0334, -0.0032,  0.0131,  0.0142,  0.00,   1.1
2287,250268.000, -40.336252649, 175.812471912,  123.7748,  2,  6,  0.0122,  0.0217,  0.0334, -0.0032,  0.0131,  0.0142,  0.00,   1.1
2287,250269.000, -40.336252639, 175.812471913,  123.7743,  2,  6,  0.0122,  0.0217,  0.0334, -0.0032,  0.0131,  0.0142,  0.00,   1.0
2287,250270.000, -40.336252634, 175.812471919,  123.7743,  2,  6,  0.0122,  0.0217,  0.0333, -0.0032,  0.0131,  0.0142,  0.00,   1.0
2287,250271.000, -40.336252625, 175.812471916,  123.7747,  2,  6,  0.0122,  0.0217,  0.0333, -0.0033,  0.0131,  0.0142,  0.00,   1.0
2287,250272.000, -40.336252619, 175.812471922,  123.7748,  2,  6,  0.0122,  0.0217,  0.0333, -0.0033,  0.0131,  0.0142,  0.00,   1.0
2287,250273.000, -40.336252612, 175.812471919,  123.7748,  2,  6,  0.0122,  0.0217,  0.0333, -0.0033,  0.0131,  0.0142,  0.00,   1.0
2287,250274.000, -40.336252602, 175.812471915,  123.7752,  2,  6,  0.0122,  0.0217,  0.0333, -0.0033,  0.0131,  0.0142,  0.00,   1.0
2287,250275.000, -40.336252596, 175.812471913,  123.7761,  2,  6,  0.0122,  0.0217,  0.0332, -0.0033,  0.0131,  0.0142,  0.00,   1.0
2287,250276.000, -40.336252595, 175.812471920,  123.7775,  2,  6,  0.0122,  0.0217,  0.0332, -0.0034,  0.0131,  0.0142,  0.00,   1.0
2287,250277.000, -40.336252583, 175.812471923,  123.7788,  2,  6,  0.0121,  0.0217,  0.0332, -0.0034,  0.0131,  0.0141,  0.00,   1.0
2287,250278.000, -40.336252574, 175.812471925,  123.7780,  2,  6,  0.0121,  0.0217,  0.0332, -0.0034,  0.0131,  0.0141,  0.00,   1.0
2287,250279.000, -40.336252570, 175.812471925,  123.7762,  2,  6,  0.0121,  0.0217,  0.0331, -0.0034,  0.0131,  0.0141,  0.00,   1.0
2287,250280.000, -40.336252567, 175.812471924,  123.7746,  2,  6,  0.0121,  0.0217,  0.0331, -0.0035,  0.0131,  0.0141,  0.00,   1.0
2287,250281.000, -40.336252566, 175.812471926,  123.7754,  2,  6,  0.0121,  0.0217,  0.0331, -0.0035,  0.0130,  0.0141,  0.00,   1.0
2287,250282.000, -40.336252568, 175.812471922,  123.7765,  2,  6,  0.0121,  0.0216,  0.0331, -0.0035,  0.0130,  0.0141,  0.00,   1.0
2287,250283.000, -40.336252567, 175.812471924,  123.7769,  2,  6,  0.0121,  0.0216,  0.0330, -0.0035,  0.0130,  0.0141,  0.00,   1.0
2287,250284.000, -40.336252565, 175.812471921,  123.7762,  2,  6,  0.0121,  0.0216,  0.0330, -0.0035,  0.0130,  0.0141,  0.00,   1.0
2287,250285.000, -40.336252572, 175.812471919,  123.7766,  2,  6,  0.0120,  0.0216,  0.0330, -0.0036,  0.0130,  0.0141,  0.00,   1.0
2287,250286.000, -40.336252582, 175.812471917,  123.7762,  2,  6,  0.0120,  0.0216,  0.0330, -0.0036,  0.0130,  0.0141,  0.00,   1.0
2287,250287.000, -40.336252591, 175.812471914,  123.7753,  2,  6,  0.0120,  0.0216,  0.0329, -0.0036,  0.0130,  0.0141,  0.00,   1.0
2287,250288.000, -40.336252595, 175.812471902,  123.7751,  2,  6,  0.0120,  0.0216,  0.0329, -0.0036,  0.0130,  0.0140,  0.00,   1.0
2287,250289.000, -40.336252599, 175.812471889,  123.7762,  2,  6,  0.0120,  0.0216,  0.0329, -0.0037,  0.0130,  0.0140,  0.00,   1.0
2287,250290.000, -40.336252600, 175.812471887,  123.7774,  2,  6,  0.0120,  0.0216,  0.0329, -0.0037,  0.0130,  0.0140,  0.00,   1.0
2287,250291.000, -40.336252598, 175.812471889,  123.7788,  2,  6,  0.0120,  0.0216,  0.0328, -0.0037,  0.0130,  0.0140,  0.00,   1.0
2287,250292.000, -40.336252598, 175.812471883,  123.7801,  2,  6,  0.0120,  0.0216,  0.0328, -0.0037,  0.0129,  0.0140,  0.00,   1.0
2287,250293.000, -40.336252600, 175.812471868,  123.7806,  2,  6,  0.0119,  0.0216,  0.0328, -0.0038,  0.0129,  0.0140,  0.00,   1.0
2287,250294.000, -40.336252600, 175.812471860,  123.7811,  2,  6,  0.0119,  0.0216,  0.0328, -0.0038,  0.0129,  0.0140,  0.00,   1.0
2287,250295.000, -40.336252601, 175.812471860,  123.7823,  2,  5,  0.0119,  0.0216,  0.0327, -0.0038,  0.0129,  0.0140,  0.00,   1.1
2287,250296.000, -40.336252595, 175.812471851,  123.7832,  2,  5,  0.0119,  0.0215,  0.0327, -0.0038,  0.0129,  0.0140,  0.00,   1.2
2287,250297.000, -40.336252594, 175.812471846,  123.7839,  2,  6,  0.0119,  0.0215,  0.0327, -0.0038,  0.0129,  0.0139,  0.00,   1.0
2287,250298.000, -40.336252592, 175.812471830,  123.7850,  2,  6,  0.0119,  0.0215,  0.0326, -0.0039,  0.0129,  0.0139,  0.00,   1.0
2287,250299.000, -40.336252590, 175.812471826,  123.7878,  2,  6,  0.0119,  0.0215,  0.0326, -0.0039,  0.0129,  0.0139,  0.00,   1.0
2287,250300.000, -40.336252587, 175.812471820,  123.7890,  2,  6,  0.0118,  0.0215,  0.0326, -0.0039,  0.0129,  0.0139,  0.00,   1.0
2287,250301.000, -40.336252587, 175.812471814,  123.7906,  2,  6,  0.0118,  0.0215,  0.0326, -0.0039,  0.0129,  0.0139,  0.00,   1.0
2287,250302.000, -40.336252586, 175.812471805,  123.7928,  2,  6,  0.0118,  0.0215,  0.0325, -0.0040,  0.0129,  0.0139,  0.00,   1.0
2287,250303.000, -40.336252583, 175.812471789,  123.7945,  2,  6,  0.0118,  0.0215,  0.0325, -0.0040,  0.0129,  0.0139,  0.00,   1.0
2287,250304.000, -40.336252580, 175.812471791,  123.7979,  2,  6,  0.0118,  0.0215,  0.0325, -0.0040,  0.0128,  0.0139,  0.00,   1.0
2287,250305.000, -40.336252574, 175.812471785,  123.8022,  2,  6,  0.0118,  0.0215,  0.0324, -0.0040,  0.0128,  0.0139,  0.00,   1.0
2287,250306.000, -40.336252569, 175.812471774,  123.8058,  2,  6,  0.0118,  0.0215,  0.0324, -0.0040,  0.0128,  0.0138,  0.00,   1.0
2287,250307.000, -40.336252560, 175.812471770,  123.8096,  2,  6,  0.0117,  0.0215,  0.0324, -0.0041,  0.0128,  0.0138,  0.00,   1.0
2287,250308.000, -40.336252553, 175.812471767,  123.8129,  2,  6,  0.0117,  0.0215,  0.0324, -0.0041,  0.0128,  0.0138,  0.00,   1.0
2287,250309.000, -40.336252549, 175.812471762,  123.8160,  2,  6,  0.0117,  0.0214,  0.0323, -0.0041,  0.0128,  0.0138,  0.00,   1.0
2287,250310.000, -40.336252526, 175.812471725,  123.8246,  2,  7,  0.0117,  0.0214,  0.0323, -0.0041,  0.0128,  0.0138,  0.00,   1.0
2287,250311.000, -40.336252516, 175.812471708,  123.8269,  2,  7,  0.0117,  0.0214,  0.0323, -0.0041,  0.0128,  0.0138,  0.00,   1.0
2287,250312.000, -40.336252504, 175.812471693,  123.8294,  2,  7,  0.0117,  0.0214,  0.0322, -0.0042,  0.0128,  0.0138,  0.00,   1.0
2287,250313.000, -40.336252493, 175.812471677,  123.8326,  2,  7,  0.0116,  0.0214,  0.0322, -0.0042,  0.0128,  0.0138,  0.00,   1.1
2287,250314.000, -40.336252483, 175.812471670,  123.8363,  2,  7,  0.0116,  0.0214,  0.0322, -0.0042,  0.0128,  0.0137,  0.00,   1.1
2287,250315.000, -40.336252468, 175.812471657,  123.8415,  2,  7,  0.0116,  0.0214,  0.0321, -0.0042,  0.0127,  0.0137,  0.00,   1.1
2287,250316.000, -40.336252437, 175.812471615,  123.8503,  2,  7,  0.0116,  0.0214,  0.0321, -0.0042,  0.0127,  0.0137,  0.00,   1.0
2287,250317.000, -40.336252433, 175.812471626,  123.8511,  2,  7,  0.0116,  0.0214,  0.0321, -0.0043,  0.0127,  0.0137,  0.00,   1.0
2287,250318.000, -40.336252401, 175.812471601,  123.8597,  2,  7,  0.0116,  0.0214,  0.0320, -0.0043,  0.0127,  0.0137,  0.00,   1.0
2287,250319.000, -40.336252380, 175.812471595,  123.8642,  2,  7,  0.0116,  0.0214,  0.0320, -0.0043,  0.0127,  0.0137,  0.00,   1.0
2287,250320.000, -40.336252373, 175.812471603,  123.8651,  2,  7,  0.0115,  0.0214,  0.0320, -0.0043,  0.0127,  0.0137,  0.00,   1.1
2287,250321.000, -40.336252352, 175.812471587,  123.8699,  2,  7,  0.0115,  0.0213,  0.0319, -0.0043,  0.0127,  0.0136,  0.00,   1.1
2287,250322.000, -40.336252335, 175.812471579,  123.8749,  2,  7,  0.0115,  0.0213,  0.0319, -0.0044,  0.0127,  0.0136,  0.00,   1.1
2287,250323.000, -40.336252300, 175.812471533,  123.8839,  2,  7,  0.0115,  0.0213,  0.0319, -0.0044,  0.0127,  0.0136,  0.00,   1.0
2287,250324.000, -40.336252278, 175.812471510,  123.8886,  2,  7,  0.0115,  0.0213,  0.0318, -0.0044,  0.0126,  0.0136,  0.00,   1.0
2287,250325.000, -40.336252256, 175.812471503,  123.8927,  2,  7,  0.0115,  0.0213,  0.0318, -0.0044,  0.0126,  0.0136,  0.00,   1.0
2287,250326.000, -40.336252253, 175.812471513,  123.8907,  2,  7,  0.0114,  0.0213,  0.0317, -0.0044,  0.0126,  0.0136,  0.00,   1.1
2287,250327.000, -40.336252232, 175.812471500,  123.8943,  2,  7,  0.0114,  0.0213,  0.0317, -0.0045,  0.0126,  0.0136,  0.00,   1.1
2287,250328.000, -40.336252207, 175.812471495,  123.8978,  2,  7,  0.0114,  0.0213,  0.0317, -0.0045,  0.0126,  0.0135,  0.00,   1.1
2287,250329.000, -40.336252181, 175.812471482,  123.9012,  2,  7,  0.0114,  0.0213,  0.0316, -0.0045,  0.0126,  0.0135,  0.00,   1.1
2287,250330.000, -40.336252139, 175.812471437,  123.9089,  2,  7,  0.0114,  0.0213,  0.0316, -0.0045,  0.0126,  0.0135,  0.00,   1.0
2287,250331.000, -40.336252108, 175.812471424,  123.9143,  2,  7,  0.0114,  0.0213,  0.0316, -0.0045,  0.0125,  0.0135,  0.00,   1.0
2287,250332.000, -40.336252077, 175.812471413,  123.9191,  2,  7,  0.0113,  0.0212,  0.0315, -0.0045,  0.0125,  0.0135,  0.00,   1.0
2287,250333.000, -40.336252062, 175.812471429,  123.9188,  2,  7,  0.0113,  0.0212,  0.0315, -0.0046,  0.0125,  0.0135,  0.00,   1.1
2287,250334.000, -40.336252035, 175.812471422,  123.9223,  2,  7,  0.0113,  0.0212,  0.0314, -0.0046,  0.0125,  0.0135,  0.00,   1.1
2287,250335.000, -40.336252001, 175.812471404,  123.9253,  2,  6,  0.0113,  0.0212,  0.0314, -0.0046,  0.0125,  0.0134,  0.00,   1.1
2287,250336.000, -40.336251981, 175.812471419,  123.9240,  2,  6,  0.0113,  0.0212,  0.0314, -0.0046,  0.0125,  0.0134,  0.00,   1.0
2287,250337.000, -40.336251951, 175.812471412,  123.9263,  2,  6,  0.0113,  0.0212,  0.0313, -0.0046,  0.0124,  0.0134,  0.00,   1.0
2287,250338.000, -40.336251922, 175.812471408,  123.9283,  2,  6,  0.0112,  0.0212,  0.0313, -0.0047,  0.0124,  0.0134,  0.00,   1.0
2287,250339.000, -40.336251894, 175.812471406,  123.9301,  2,  5,  0.0112,  0.0212,  0.0313, -0.0047,  0.0124,  0.0134,  0.00,   1.1
2287,250340.000, -40.336251861, 175.812471395,  123.9328,  2,  4,  0.0112,  0.0212,  0.0312, -0.0047,  0.0124,  0.0134,  0.00,   2.6
2287,250341.000, -40.336251835, 175.812471399,  123.9330,  2,  5,  0.0112,  0.0212,  0.0312, -0.0047,  0.0124,  0.0134,  0.00,   1.0
2287,250342.000, -40.336251797, 175.812471403,  123.9367,  2,  5,  0.0112,  0.0211,  0.0311, -0.0047,  0.0124,  0.0133,  0.00,   1.0
2287,250343.000, -40.336251759, 175.812471394,  123.9392,  2,  5,  0.0112,  0.0211,  0.0311, -0.0047,  0.0124,  0.0133,  0.00,   1.0
2287,250344.000, -40.336251720, 175.812471401,  123.9424,  2,  5,  0.0111,  0.0211,  0.0311, -0.0048,  0.0123,  0.0133,  0.00,   1.1
2287,250345.000, -40.336251685, 175.812471403,  123.9441,  2,  5,  0.0111,  0.0211,  0.0310, -0.0048,  0.0123,  0.0133,  0.00,   1.1
2287,250346.000, -40.336251648, 175.812471408,  123.9459,  2,  5,  0.0111,  0.0211,  0.0310, -0.0048,  0.0123,  0.0133,  0.00,   1.1
2287,250347.000, -40.336251613, 175.812471410,  123.9476,  2,  5,  0.0111,  0.0211,  0.0309, -0.0048,  0.0123,  0.0133,  0.00,   1.1
2287,250348.000, -40.336251581, 175.812471403,  123.9491,  2,  4,  0.0111,  0.0211,  0.0309, -0.0048,  0.0123,  0.0132,  0.00,   2.4
2287,250349.000, -40.336251560, 175.812471416,  123.9482,  2,  5,  0.0111,  0.0211,  0.0309, -0.0048,  0.0123,  0.0132,  0.00,   1.0
2287,250350.000, -40.336251527, 175.812471410,  123.9494,  2,  4,  0.0110,  0.0211,  0.0308, -0.0049,  0.0123,  0.0132,  0.00,   2.4
2287,250351.000, -40.336251503, 175.812471431,  123.9477,  2,  5,  0.0110,  0.0211,  0.0308, -0.0049,  0.0123,  0.0132,  0.00,   1.0
2287,250352.000, -40.336251472, 175.812471433,  123.9485,  2,  4,  0.0110,  0.0210,  0.0308, -0.0049,  0.0122,  0.0132,  0.00,   2.3
2287,250353.000, -40.336251449, 175.812471438,  123.9467,  2,  4,  0.0110,  0.0210,  0.0307, -0.0049,  0.0122,  0.0132,  0.00,   2.3
2287,250354.000, -40.336251424, 175.812471447,  123.9452,  2,  4,  0.0110,  0.0210,  0.0307, -0.0049,  0.0122,  0.0132,  0.00,   2.3
2287,250355.000, -40.336251403, 175.812471451,  123.9431,  2,  4,  0.0110,  0.0210,  0.0306, -0.0049,  0.0122,  0.0131,  0.00,   2.3
